ind,name,epi_val,loc_x,loc_y,geometry,lon,lat
0,SERANGOON NORTH,0.0033930894417768106,32458.803173465694,39597.640171283405,POINT (32458.80317346569 39597.6401712834),103.87338413505712,1.3743811725967463
1,FAJAR,0.002065971707199484,21080.957329295943,40748.09264324082,POINT (21080.95732929594 40748.09264324082),103.77114573662689,1.384784970108086
2,BEDOK NORTH,0.02113979153748735,39429.21049156652,34737.619446747325,POINT (39429.21049156652 34737.61944674733),103.93601636847204,1.330427062198657
3,KAKI BUKIT,0.008466664327863603,36485.39517446239,35307.04080713547,POINT (36485.39517446239 35307.04080713547),103.90956473343587,1.335577667712437
4,DHOBY GHAUT,0.003904399570647534,29320.073554728595,31245.748357182987,POINT (29320.07355472859 31245.74835718299),103.84518002888262,1.298849935041289
5,PEI CHUN,0.002162151302442441,30814.328258380167,35440.97036622371,POINT (30814.32825838017 35440.97036622371),103.85860695561433,1.3367899379225054
6,GUL BASIN,0.0006040352401087267,10327.423366876139,31746.761667102444,POINT (10327.42336687614 31746.76166710244),103.67452251642794,1.3033759122365716
7,COMMONWEALTH,0.002181995892531071,24278.770993891714,31919.970091767424,POINT (24278.77099389171 31919.97009176742),103.79988159822591,1.3049471631194771
8,TOH TUCK,0.002899380628893325,19433.120409303167,34884.24814481723,POINT (19433.12040930317 34884.24814481723),103.7563403595505,1.331754060305392
9,TENGEH,0.00023926003969556003,7798.167715521637,35535.612755582784,POINT (7798.167715521637 35535.61275558278),103.65179360088587,1.3376392238075476
10,TECK WHYE,0.003439565820529348,19269.994201727684,40394.10505745955,POINT (19269.99420172768 40394.10505745955),103.75487297478932,1.3815831503896874
11,CLEMENTI NORTH,0.006781736270390149,20613.245074511975,33368.822558973545,POINT (20613.24507451197 33368.82255897354),103.76694480141852,1.3180494070634505
12,MALCOLM,0.0015493524652176224,28070.258491902667,33930.25681975641,POINT (28070.25849190267 33930.25681975641),103.83394988905934,1.3231277104348789
13,WENYA,0.0015272080282964925,13953.527110915462,37532.720903719426,POINT (13953.52711091546 37532.72090371943),103.70710197456586,1.3557038062008728
14,SIGLAP,0.0007071604706269827,38435.467924655,32101.881289972705,POINT (38435.467924655 32101.88128997271),103.92708615754032,1.3065907673757353
15,CLARKE QUAY,0.002076136809421514,29253.20737914155,30222.86451497017,POINT (29253.20737914155 30222.86451497017),103.84457916573413,1.289599336117089
16,CHINA SQUARE,0.001784740532194098,29509.64371894011,29646.449509589736,POINT (29509.64371894011 29646.44950958974),103.84688332472224,1.2843864300069896
17,SIMEI,0.005980279492317473,41431.06319789565,35870.78529241022,POINT (41431.06319789565 35870.78529241022),103.95400459933681,1.3406741701417189
18,YISHUN EAST,0.005414068369902269,29476.599550623632,45515.71964142526,POINT (29476.59955062363 45515.71964142526),103.84658719046679,1.427902455042988
19,CITY TERMINALS,0.001355366834717955,28387.338879345003,27536.56717797017,POINT (28387.338879345 27536.56717797017),103.83679894673475,1.2653054268598458
20,NATURE RESERVE,0.001150880500711786,21822.627365703767,37285.26155418757,POINT (21822.62736570377 37285.26155418757),103.7778109222243,1.3534685435461447
21,PENJURU CRESCENT,0.0009951627194655353,17651.309092268853,31799.610293651014,POINT (17651.30909226885 31799.61029365101),103.7403308328363,1.3038571666756469
22,FARRER COURT,0.0011843912026432938,24862.821752675965,33234.79512299116,POINT (24862.82175267597 33234.79512299116),103.8051294336168,1.316838040156311
23,WOODLANDS REGIONAL CENTRE,0.014644740896760534,22571.20947274392,46698.873522428745,POINT (22571.20947274392 46698.87352242874),103.78453565587142,1.4386019837893724
24,LORONG CHUAN,0.0008612330616748316,31327.76283858814,36732.63168143296,POINT (31327.76283858814 36732.63168143296),103.86322060547117,1.3484712104597012
25,NASSIM,0.002284758004987346,27002.692812642006,32905.57608588826,POINT (27002.69281264201 32905.57608588826),103.82435727605026,1.3138608437605692
26,NATIONAL UNIVERSITY OF S'PORE,0.002512908296105402,21688.92435701273,30930.121367361266,POINT (21688.92435701273 30930.12136736127),103.77661082228913,1.295994904364467
27,HENDERSON HILL,0.003112505367953908,26782.826114537977,29933.76519384831,POINT (26782.82611453798 29933.76519384831),103.82238177983277,1.2869848247088125
28,PEARL'S HILL,0.00218418632391153,28679.063482188954,29782.05196581279,POINT (28679.06348218895 29782.05196581279),103.83942023600794,1.2856127998836226
29,SOMERSET,0.004931140423835757,28626.561106512545,31494.904838077186,POINT (28626.56110651254 31494.90483807719),103.83894851523259,1.3011032402116882
30,ANAK BUKIT,0.005778054203012807,21127.191865165652,35561.88405756135,POINT (21127.19186516565 35561.88405756135),103.77156238243236,1.3378827868689442
31,BEDOK SOUTH,0.006757924285205147,40379.4208438649,33744.22380517173,POINT (40379.4208438649 33744.22380517173),103.9445541236792,1.321442788132853
32,AIRPORT ROAD,0.0004334798291918073,35133.31546127115,37075.3184444804,POINT (35133.31546127115 37075.3184444804),103.89741594209566,1.351569681556326
33,PASIR RIS WEST,0.003916482035015231,39851.40921206318,40140.22376764719,POINT (39851.40921206318 40140.22376764719),103.93981218674162,1.3792860455707274
34,TUAS VIEW,0.0020336830581568384,5753.633738975848,31501.454942549382,POINT (5753.633738975848 31501.45494254938),103.63342528155559,1.3011545128914832
35,PUNGGOL TOWN CENTRE,0.0009412286680714578,35602.37772621485,43427.51105214588,POINT (35602.37772621485 43427.51105214588),103.9016324010345,1.409016481174758
36,LITTLE INDIA,0.0004526555379903869,30307.510265269553,32122.990877797478,POINT (30307.51026526955 32122.99087779748),103.8540526526339,1.3067833494066663
37,BIDADARI,0.0008536183283129173,32632.539491021416,35918.015083539736,POINT (32632.53949102142 35918.01508353974),103.87494471168279,1.3411039360327364
38,RIDOUT,0.0013913636898489525,25568.307760726144,31752.668628782943,POINT (25568.30776072614 31752.66862878294),103.81146870081567,1.3034342759419706
39,MOUNTBATTEN,0.0014773111747554486,34449.70449213887,31557.744610160942,POINT (34449.70449213887 31557.74461016094),103.89127210550798,1.3016708774965864
40,BEDOK RESERVOIR,0.003688083430201881,38351.116697872814,35800.60767872112,POINT (38351.11669787281 35800.60767872112),103.92632946861009,1.3400407247120356
41,SENTOSA,0.0005974974209799319,27593.939398987364,25813.35469226122,POINT (27593.93939898736 25813.35469226122),103.82967001300581,1.2497212942436107
42,GHIM MOH,0.0017940319086122548,22899.189707113168,32579.935350834006,POINT (22899.18970711317 32579.93535083401),103.78748530989176,1.3109154577051674
43,BOON LAY PLACE,0.005672693939372593,14403.778894153533,36444.62750039651,POINT (14403.77889415353 36444.62750039651),103.71114826201617,1.345863707864033
44,HONG KAH,0.010668894724537019,15507.93463697698,36890.28106465117,POINT (15507.93463697698 36890.28106465117),103.7210695750819,1.3498945123423916
45,TANGLIN HALT,0.0033733333742076007,23925.44081984584,31512.7857427768,POINT (23925.44081984584 31512.7857427768),103.79670681516203,1.3012646875304354
46,GOODWOOD PARK,0.0005515811895558751,28108.880722814643,32875.26700631441,POINT (28108.88072281464 32875.26700631441),103.83429692670703,1.3135867551818639
47,PUNGGOL FIELD,0.00431140800604173,36673.89943189138,41847.09028927734,POINT (36673.89943189138 41847.09028927734),103.91126045571849,1.3947234333319314
48,CENTRAL WATER CATCHMENT,0.0014989951048566955,24424.41830239057,39849.045628750864,POINT (24424.41830239057 39849.04562875086),103.80118937190913,1.3766549135530886
49,DAIRY FARM,0.0009044202672474731,21181.12006932678,38939.837529327364,POINT (21181.12006932678 38939.83752932736),103.77204619195622,1.3684317905745342
50,MARYMOUNT,0.0043387096805011655,29287.585346406555,37383.7640446006,POINT (29287.58534640655 37383.7640446006),103.84488836535621,1.354359976825974
51,KEBUN BAHRU,0.0025406274299548167,28700.16740246356,39496.506105167544,POINT (28700.16740246356 39496.50610516754),103.83961008503744,1.3734668818697697
52,MARGARET DRIVE,0.0018041017242769008,25202.761400218726,31065.97316263043,POINT (25202.76140021873 31065.97316263043),103.80818415951701,1.297224013610039
53,ADMIRALTY,0.0019133910013708084,27091.275536248853,48333.800594996406,POINT (27091.27553624885 48333.80059499641),103.82515275811151,1.453388180796796
54,SAMULUN,0.000758433192071615,13418.492209985587,32264.59333432862,POINT (13418.49220998559 32264.59333432862),103.70229686612231,1.3080605953698587
55,KEAT HONG,0.003364169865213726,18333.674082127018,39720.61979007088,POINT (18333.67408212702 39720.61979007088),103.74645966810148,1.3754921030747487
56,CHOA CHU KANG NORTH,0.002088477938755258,18347.56827551308,41593.76489672388,POINT (18347.56827551308 41593.76489672388),103.74658390185523,1.3924321414732015
57,PORT,0.0017378465202191403,21576.076592139707,28788.217285647737,POINT (21576.07659213971 28788.21728564774),103.77559727179094,1.2766242624901543
58,TUKANG,0.0009736707684288012,14192.465474000428,34209.55068525991,POINT (14192.46547400043 34209.55068525991),103.70925049926412,1.3256504169161634
59,LORONG 8 TOA PAYOH,0.002509321497113638,30646.842994452676,35893.11268456182,POINT (30646.84299445268 35893.11268456182),103.85710204255432,1.3408789673955288
60,CHANGI AIRPORT,0.007531876712601343,46661.84904173782,36599.81581775301,POINT (46661.84904173782 36599.81581775301),104.00100662707713,1.3472644498244255
61,ALJUNIED,0.013909277211302685,33592.57597552084,32970.83016549267,POINT (33592.57597552084 32970.83016549267),103.88357067250058,1.3144504863543334
62,ALEXANDRA HILL,0.005676079091656729,25358.82086871003,29991.384227892642,POINT (25358.82086871003 29991.38422789264),103.80958651268992,1.2875058233956922
63,BUKIT BATOK CENTRAL,0.007859697694401478,18773.557893829093,36680.052416310515,POINT (18773.55789382909 36680.05241631051),103.75041327826303,1.3479944662529162
64,NEWTON CIRCUS,0.0024942766109204255,28587.16269589719,32653.94284093081,POINT (28587.16269589719 32653.94284093081),103.83859452442847,1.3115851721534526
65,BUKIT HO SWEE,0.0018274716570745695,27680.06279379669,30230.86100326741,POINT (27680.06279379669 30230.86100326741),103.8304438111068,1.2896716768976293
66,PAYA LEBAR WEST,0.0003749828475747691,36649.31066899246,39403.4873723913,POINT (36649.31066899246 39403.4873723913),103.91103878719413,1.3726243916202157
67,CHINATOWN,0.004551756795005708,29153.967661095852,29158.044396984555,POINT (29153.96766109585 29158.04439698455),103.84368741707814,1.2799694805649364
68,SEMBAWANG EAST,0.0010975605205566085,27788.94031544507,47682.83203291677,POINT (27788.94031544507 47682.83203291677),103.831421995747,1.4475010717897812
69,KIAN TECK,0.0016766419350662824,12929.74519311452,34857.75324752137,POINT (12929.74519311452 34857.75324752137),103.69790398362179,1.3315119166023832
70,LAVENDER,0.005011211180780767,30874.406449106886,32569.526456947464,POINT (30874.40644910689 32569.52645694746),103.85914652451932,1.3108216118420397
71,RIVERVALE,0.0063491788605634135,35977.611393310646,41060.80245736396,POINT (35977.61139331065 41060.80245736396),103.90500354341208,1.387612733957585
72,BOAT QUAY,0.0013205329357677952,29654.959447992474,29974.655356499807,POINT (29654.95944799247 29974.65535649981),103.8481890611057,1.2873546010961991
73,BUKIT BATOK WEST,0.0023808581472059276,17865.88385032783,36623.213408896496,POINT (17865.88385032783 36623.2134088965),103.74225729012912,1.3474801419135118
74,SELETAR HILLS,0.0015744990816829532,31676.96269005011,40603.198908321414,POINT (31676.96269005011 40603.19890832141),103.86635886168928,1.3834751926354982
75,SUNGEI ROAD,0.001206586473529007,30601.34450753796,32003.10285420707,POINT (30601.34450753796 32003.10285420707),103.85669288242146,1.3056991011518744
76,BUKIT BATOK SOUTH,0.0030849578659331955,19631.8730143177,35910.96356974266,POINT (19631.8730143177 35910.96356974266),103.75812597974239,1.341039357941271
77,WOODLANDS SOUTH,0.002782667908044479,23609.573063994983,45692.87859125945,POINT (23609.57306399498 45692.87859125945),103.79386650909318,1.4295043136759762
78,PEOPLE'S PARK,0.003209686044633146,28831.780734615728,29419.64575133986,POINT (28831.78073461573 29419.64575133986),103.84079245203128,1.2823353215867621
79,WOODGROVE,0.0022508792254092597,21905.284951306206,45668.04115376962,POINT (21905.28495130621 45668.04115376962),103.77855190469212,1.4292793767336556
80,LOYANG EAST,0.0006242842234303152,43592.331168355406,38890.09486953484,POINT (43592.33116835541 38890.09486953484),103.97342639768576,1.3679786083764192
81,WESTERN WATER CATCHMENT,0.003982262949638213,12020.342017595922,40454.87109876308,POINT (12020.34201759592 40454.87109876308),103.68972952382144,1.3821296316135885
82,SEMBAWANG HILLS,0.0011189248527254624,27715.92362274355,39634.529022206014,POINT (27715.92362274355 39634.52902220601),103.83076594746696,1.3747151187000992
83,ONE NORTH,0.004355149622410727,23299.243777977365,31176.160569120173,POINT (23299.24377797736 31176.16056912017),103.79108020200717,1.2982202802433367
84,YUNNAN,0.009311710762172794,12593.14125603731,36299.93352123209,POINT (12593.14125603731 36299.93352123209),103.6948786852458,1.3445542759849602
85,INTERNATIONAL BUSINESS PARK,0.0007544661005155876,18514.59951587179,34285.7972453252,POINT (18514.59951587179 34285.7972453252),103.74808712540158,1.326341614966043
86,CLIFFORD PIER,0.001299000253533508,30379.504158819294,29776.433458651285,POINT (30379.50415881929 29776.43345865129),103.85469937400205,1.2855619054207172
87,PANDAN,0.0009822695599879798,19228.603304213026,32265.401001124526,POINT (19228.60330421303 32265.40100112453),103.75450340554816,1.3080700963936915
88,ULU PANDAN,0.0011731050376579016,22210.509339814565,33177.22084015704,POINT (22210.50933981457 33177.22084015704),103.78129707064073,1.3163169728996194
89,TELOK BLANGAH WAY,0.0019720346860360987,26570.517350398142,28871.892241833903,POINT (26570.51735039814 28871.8922418339),103.82047414769734,1.2773816094125283
90,BENDEMEER,0.005677412647128044,31175.957155888656,33827.944566878956,POINT (31175.95715588866 33827.94456687896),103.86185623396615,1.3222022697948959
91,SPRINGLEAF,0.0006647498103454757,26969.723237830163,42586.216026900176,POINT (26969.72323783016 42586.21602690018),103.82406069442041,1.4014091006524756
92,MARINA SOUTH,0.00045625108638788303,31595.83574613999,29220.18737674884,POINT (31595.83574613999 29220.18737674884),103.86562853478742,1.2805312962019255
93,YUHUA EAST,0.00415682324109181,17485.175463876916,35841.780067273954,POINT (17485.17546387692 35841.78006727395),103.73883666496965,1.3404130148853381
94,REDHILL,0.0033076502302732294,26201.95801931446,30005.703511426786,POINT (26201.95801931446 30005.70351142679),103.8171624411697,1.2876353816457462
95,KRANJI,0.0018551044582279677,19766.843293119193,46226.35453071179,POINT (19766.84329311919 46226.35453071179),103.75933586828188,1.4343280145032133
96,THE WHARVES,0.0003081533146949545,26945.068079765482,49552.790419481935,POINT (26945.06807976548 49552.79041948193),103.82383888814324,1.464412275616051
97,EVERTON PARK,0.0025365763667749225,28333.577171399804,28602.992668595456,POINT (28333.5771713998 28602.99266859546),103.8363158911518,1.274949806499845
98,HOUGANG EAST,0.002447760185069889,35128.00086020315,39812.38575361663,POINT (35128.00086020315 39812.38575361663),103.89736884133832,1.376322727735216
99,ROBERTSON QUAY,0.002010401248101095,28416.847705809705,30409.360710004737,POINT (28416.84770580971 30409.36071000474),103.83706413074859,1.291285964435722
100,ANSON,0.0009696821395340589,29145.35005232677,28466.778334447317,POINT (29145.35005232677 28466.77833444732),103.84360995976606,1.2737179128758616
101,CLEMENTI WOODS,0.003315082929307408,20764.19809802967,31824.742163942192,POINT (20764.19809802967 31824.74216394219),103.76830155139798,1.3040853337478187
102,CLEMENTI CENTRAL,0.010658902119526243,20183.449679705915,32707.539452139346,POINT (20183.44967970591 32707.53945213935),103.76308303868232,1.3120688940342147
103,SENJA,0.002993871021552971,19897.9466771508,40895.36376800436,POINT (19897.9466771508 40895.36376800436),103.76051545403591,1.3861165316950739
104,YIO CHU KANG NORTH,0.0008584129601973478,29505.98777337602,41733.440102381326,POINT (29505.98777337602 41733.44010238133),103.84685107338909,1.3936968809849108
105,BOON TECK,0.0024859935139134276,30193.134931548204,35272.747408820775,POINT (30193.1349315482 35272.74740882077),103.85302516034008,1.3352686406656227
106,BISHAN EAST,0.009545312478410884,30191.909235033578,36882.193980520504,POINT (30191.90923503358 36882.1939805205),103.85301426314005,1.3498239031991925
107,TIONG BAHRU STATION,0.006713443376736157,27277.469823286847,29607.023713238825,POINT (27277.46982328685 29607.02371323882),103.82682636099557,1.2840299047502715
108,TENGAH,0.0006598935777396401,16363.189321680702,38432.54743056752,POINT (16363.1893216807 38432.54743056752),103.7287539643239,1.3638425414864637
109,CLEMENTI WEST,0.0033328428838247997,20184.350834316938,31651.883436949975,POINT (20184.35083431694 31651.88343694997),103.76309140130333,1.3025219206014296
110,KAMPONG GLAM,0.0008200813224155298,30934.989044484697,31623.14830896252,POINT (30934.9890444847 31623.14830896252),103.85969079948255,1.3022628966224086
111,MOUNT PLEASANT,0.0006554871291984216,27515.312527188988,35112.61835675621,POINT (27515.31252718899 35112.61835675621),103.82896338520835,1.333820565742547
112,BOULEVARD,0.008755843200120699,27916.92717451886,31967.006460267352,POINT (27916.92717451886 31967.00646026735),103.83257213088058,1.3053727671783728
113,TAI SENG,0.0025604229860365464,34043.04547353803,36213.01163935063,POINT (34043.04547353803 36213.01163935063),103.88761900539464,1.3437715290874896
114,BRADDELL,0.0022260676655198883,29811.600606058993,35855.51003411173,POINT (29811.60060605899 35855.51003411173),103.84959688934454,1.3405389641360828
115,GEYLANG BAHRU,0.0029432730007153797,32110.0626608427,33765.67462411836,POINT (32110.0626608427 33765.67462411836),103.87024965664104,1.321639011249441
116,NEE SOON,0.0005484526388260109,25921.724541618416,43261.52256922593,POINT (25921.72454161842 43261.52256922593),103.81464351580912,1.4075162731671977
117,YIO CHU KANG EAST,0.0009510557706299481,30234.36824767746,40602.650868163284,POINT (30234.36824767746 40602.65086816328),103.85339606327278,1.3834703822853665
118,HOUGANG WEST,0.005747757803554132,33849.22059854426,39506.87246417263,POINT (33849.22059854426 39506.87246417263),103.88587801549866,1.3735600585379475
119,TAMPINES NORTH,0.0015562241211087163,39763.942304357435,38698.16923684965,POINT (39763.94230435744 38698.16923684965),103.93902566064801,1.3662446773061188
120,KHATIB,0.006114987018036766,27480.635781943467,44420.68844005302,POINT (27480.63578194347 44420.68844005302),103.82865163074285,1.417999422097793
121,ISTANA NEGARA,0.00024010587987676225,29226.828401770454,31963.289418193264,POINT (29226.82840177045 31963.28941819326),103.84434220775674,1.3053391274262198
122,MANDAI WEST,0.00026805939304870856,22549.07367066924,44455.84748237901,POINT (22549.07367066924 44455.84748237901),103.78433717404774,1.4183168706857125
123,YEW TEE,0.004752538954231202,18498.113917888808,42506.07435712102,POINT (18498.11391788881 42506.07435712102),103.74793637383215,1.4006827810316804
124,SEMBAWANG SPRINGS,0.001399077178092162,27076.811872762613,46959.08865421795,POINT (27076.81187276261 46959.08865421795),103.8250228325317,1.4409557848889198
125,KENT RIDGE,0.001252212996621547,23464.84096945936,29725.370664883834,POINT (23464.84096945936 29725.37066488383),103.7925683749522,1.285099874045186
126,JURONG RIVER,0.0009182226346160781,16367.556024960319,33519.992654829344,POINT (16367.55602496032 33519.99265482934),103.72879508779815,1.319415216301221
127,STRAITS VIEW,0.0006347875323143949,30832.901787749663,28194.084366665516,POINT (30832.90178774966 28194.08436666552),103.85877319158759,1.2712516585846738
128,MACKENZIE,0.0007750693979108594,29680.0182285785,32062.926337235265,POINT (29680.0182285785 32062.92633723527),103.84841433618162,1.3062401873224059
129,KEMBANGAN,0.006612162304833807,37158.70152597109,34115.96834310454,POINT (37158.70152597109 34115.96834310454),103.91561441730295,1.3248058450453342
130,SELEGIE,0.0008862061311029674,29817.330417508154,31611.0039513247,POINT (29817.33041750815 31611.0039513247),103.8496481246803,1.3021531528758177
131,SENOKO SOUTH,0.0016466836429429948,25130.655027630622,48346.032612006624,POINT (25130.65502763062 48346.03261200662),103.80753457399123,1.453498669343512
132,CHANGI WEST,0.0013485213397936087,44092.33800889986,38928.65858804422,POINT (44092.33800889986 38928.65858804422),103.97791931443878,1.3683270955747835
133,LIU FANG,0.0010490246551651675,14079.100430344712,33391.56235811993,POINT (14079.10043034471 33391.56235811993),103.7082322256014,1.3182527858717021
134,MARITIME SQUARE,0.009897444628355559,25805.786755556164,27911.41936687398,POINT (25805.78675555616 27911.41936687398),103.81360282599435,1.2686953856199377
135,TELOK BLANGAH DRIVE,0.0050647620765347425,25280.261256543246,28791.460639047047,POINT (25280.26125654325 28791.46063904705),103.80888072568372,1.2766541295431642
136,TAMPINES WEST,0.010644431324991654,39421.657135673464,36739.206926782084,POINT (39421.65713567346 36739.20692678208),103.9359492504395,1.3485286827103693
137,SENGKANG WEST,0.000304091631108238,31319.943179597,41936.678659985184,POINT (31319.943179597 41936.67865998518),103.86315092364016,1.395534746391568
138,SENGKANG TOWN CENTRE,0.010405315200682577,35163.81208241263,41501.14185733575,POINT (35163.81208241263 41501.14185733575),103.89769104270918,1.3915952146025619
139,CORONATION ROAD,0.0015135200221776009,24463.149083049786,34200.33394610333,POINT (24463.14908304979 34200.33394610333),103.80153806031561,1.3255699870997546
140,SEMBAWANG STRAITS,0.00035959411712018147,28352.47747941471,48918.274998343266,POINT (28352.47747941471 48918.27499834327),103.83648595685038,1.4586739673171052
141,CHONG BOON,0.0062555926824650904,30485.51096793551,38478.993077453386,POINT (30485.51096793551 38478.99307745339),103.85565259176533,1.3642647614811059
142,LORONG AH SOO,0.00641437868628165,33930.31694000141,37657.02605083232,POINT (33930.31694000141 37657.02605083232),103.88660635578636,1.3568306986056031
143,TOH GUAN,0.003374937266237623,18294.17741956271,35518.17003930615,POINT (18294.17741956271 35518.17003930615),103.74610612331207,1.3374866754402714
144,CHATSWORTH,0.0021650165454204767,26896.40192018841,31045.018709789372,POINT (26896.40192018841 31045.01870978937),103.82340226533074,1.2970346150649472
145,NORTHLAND,0.0036773581700950686,28520.58147944309,46642.724306057,POINT (28520.58147944309 46642.724306057),103.8379965049443,1.4380947108797335
146,BUKIT MERAH,0.00466165773731061,26360.799076920233,29384.142962963735,POINT (26360.79907692023 29384.14296296374),103.81858972483472,1.282014215039315
147,MOULMEIN,0.004587440023091241,29057.441598430312,33323.92217556762,POINT (29057.44159843031 33323.92217556762),103.84282023423542,1.3176442161211235
148,YIO CHU KANG WEST,0.0026118099790207582,28750.497907953646,40360.62629937161,POINT (28750.49790795365 40360.62629937161),103.84006236264308,1.3812816745170018
149,FORT CANNING,0.001130853067539101,29413.971801835447,30713.07235701978,POINT (29413.97180183545 30713.07235701978),103.84602372251331,1.294032596644197
150,MARINE PARADE,0.005407493284535189,36263.982732692464,31684.26562347877,POINT (36263.98273269246 31684.26562347877),103.90757424539666,1.302814658088958
151,PLAB,0.00036849117562200563,36691.9113853847,37730.7232890936,POINT (36691.9113853847 37730.7232890936),103.91142109667577,1.3574965116360636
152,TAMAN JURONG,0.010460549651638807,15522.036299892932,35189.13951045098,POINT (15522.03629989293 35189.13951045098),103.72119698791933,1.3345100276737618
153,KATONG,0.002371051236313791,35680.90070278952,32176.35068347094,POINT (35680.90070278952 32176.35068347094),103.90233511048451,1.3072650486138169
154,LAKESIDE,0.0024880641554667292,16697.011877055575,35114.90626630187,POINT (16697.01187705557 35114.90626630187),103.73175482665911,1.3338391511338976
155,PAYA LEBAR NORTH,0.0011579672304453323,38291.97884939949,39463.33191066482,POINT (38291.97884939949 39463.33191066482),103.92579933809868,1.3731650750657904
156,KAMPONG UBI,0.006484021252792881,35039.54952054741,34647.26335982933,POINT (35039.54952054741 34647.26335982933),103.89657283261425,1.3296112488672591
157,JOO KOON,0.004585544580404524,10883.946697259795,34203.6959676138,POINT (10883.94669725979 34203.6959676138),103.67952175742735,1.3255957904203604
158,XILIN,0.002451362541632842,43110.614114147545,34607.313266481964,POINT (43110.61411414755 34607.31326648196),103.96909570081026,1.329247014077246
159,BRICKWORKS,0.00261681065908692,17861.636470452515,37527.33440354433,POINT (17861.63647045251 37527.33440354433),103.74221882010215,1.3556566787003048
160,FARRER PARK,0.004605178539844609,30093.415208754835,32386.2107714154,POINT (30093.41520875484 32386.2107714154),103.85212892485775,1.3091638324246975
161,PENG SIANG,0.003087846287919031,17462.29208869116,40146.41131634766,POINT (17462.29208869116 40146.41131634766),103.73862952723161,1.3793425042886984
162,MAXWELL,0.0004059105965932988,29392.0478273365,29096.75392269798,POINT (29392.0478273365 29096.75392269798),103.84582665508717,1.2794151814230914
163,SWISS CLUB,0.0021963059276760995,23436.268864296657,35866.36797523307,POINT (23436.26886429666 35866.36797523307),103.79231073810345,1.3406368680394418
164,FABER,0.0010645472475630567,19489.655947931748,33800.86623498317,POINT (19489.65594793175 33800.86623498317),103.75684866369166,1.3219563624509025
165,SELETAR,0.0012537024868056834,33371.54996742569,43425.08958715136,POINT (33371.54996742569 43425.08958715136),103.88158652373819,1.4089950869017478
166,TYERSALL,0.0015211222005138787,25732.653605593776,32985.84941483235,POINT (25732.65360559378 32985.84941483235),103.812945334032,1.314586739878893
167,SAUJANA,0.0017861281919928557,20536.71458242836,40906.653164726005,POINT (20536.71458242836 40906.65316472601),103.76625526492073,1.3862187994806403
168,PHILLIP,0.000346099232289574,29706.724254032208,29744.90793233342,POINT (29706.72425403221 29744.90793233342),103.8486541764783,1.2852768433369641
169,QUEENSWAY,0.0012111679063986013,24168.31066714539,30104.176894295317,POINT (24168.31066714539 30104.17689429532),103.79888928267604,1.2885257576336944
170,JURONG PORT,0.0008656870913631092,15250.743384648242,32183.916017764193,POINT (15250.74338464824 32183.91601776419),103.71876051501681,1.3073317903806227
171,SENNETT,0.0024121273507973677,32485.48989132639,35050.196588656974,POINT (32485.48989132639 35050.19658865697),103.87362325551098,1.3332557175653341
172,HONG KAH NORTH,0.0029451849594268097,18505.46533835265,38307.468402074024,POINT (18505.46533835265 38307.46840207402),103.74800378713729,1.3627121368319692
173,OXLEY,0.00039661139977998305,28802.355543490634,31053.671768288063,POINT (28802.35554349063 31053.67176828806),103.84052809676885,1.2971128795982187
174,TURF CLUB,0.002962672311407556,20234.60067065213,44507.19013116936,POINT (20234.60067065213 44507.19013116936),103.76353957763118,1.4187806576589455
175,WEST COAST,0.0009298684470540078,19293.762515404862,33172.62289817378,POINT (19293.76251540486 33172.62289817378),103.75508863677432,1.3162747018530605
176,BAYFRONT SUBZONE,0.001339462655463043,30806.241886055977,29530.167087400507,POINT (30806.24188605598 29530.16708740051),103.8585337607757,1.2833347237960444
177,TANJONG RHU,0.0015787756500198293,32740.120813032518,31438.308438870205,POINT (32740.12081303252 31438.3084388702),103.87591070438813,1.3005910471880395
178,PIONEER SECTOR,0.0003572423975266653,8872.750171111462,31423.443487222998,POINT (8872.750171111462 31423.443487223),103.66145185842086,1.3004510861525571
179,SHIPYARD,0.00045380478745975065,11970.142817380833,32202.385405285226,POINT (11970.14281738083 32202.38540528523),103.68928282333309,1.3074972927833701
180,MARINA CENTRE,0.0025765673568258532,30938.098571689057,30471.826782067328,POINT (30938.09857168906 30471.82678206733),103.8597186321672,1.291850750540621
181,BUKIT BATOK EAST,0.002193747805503169,19566.36135946296,36806.30159336412,POINT (19566.36135946296 36806.30159336412),103.75753706906308,1.3491364515354562
182,CENTRAL SUBZONE,0.002974711868965386,30125.836768927835,28683.03994913768,POINT (30125.83676892783 28683.03994913768),103.85241999819281,1.2756736565743474
183,PATERSON,0.0007918383977197668,27809.317106348877,31511.373390977304,POINT (27809.31710634888 31511.3733909773),103.83160520673977,1.301252181698841
184,DUNEARN,0.001040074978922778,26525.527855372544,34268.854766534845,POINT (26525.52785537254 34268.85476653485),103.82006964537068,1.3261898347977434
185,DEFU INDUSTRIAL PARK,0.0018104167986748004,34951.39613885811,37089.43309924034,POINT (34951.39613885811 37089.43309924034),103.89578128553674,1.351697372245226
186,WATERWAY EAST,0.00216001849138105,37063.22385897944,42568.223795109014,POINT (37063.22385897944 42568.22379510901),103.91475906733044,1.4012449798631565
187,ANCHORVALE,0.003227421163752322,34218.535479903636,41815.31600220777,POINT (34218.53547990364 41815.31600220777),103.88919706169341,1.3944367092628651
188,CHOA CHU KANG CENTRAL,0.008468898812582613,18465.672016230423,40772.9207812787,POINT (18465.67201623042 40772.9207812787),103.74764542322222,1.3850087690364798
189,CHENG SAN,0.005485228426845056,30312.19239595688,39413.34782385563,POINT (30312.19239595688 39413.34782385563),103.85409527879992,1.3727147456897675
190,YUHUA WEST,0.004396422197665626,16721.252554125156,36571.26462537872,POINT (16721.25255412516 36571.26462537872),103.73197210109217,1.3470099275250864
191,KANGKAR,0.0028679576239771538,35222.44094552205,39071.33995486339,POINT (35222.44094552205 39071.33995486339),103.89821727302413,1.3696209556028416
192,MEI CHIN,0.003598607042641035,24651.06939507004,30651.134086325186,POINT (24651.06939507004 30651.13408632519),103.8032270087817,1.2934723009335265
193,TOA PAYOH CENTRAL,0.01271079706500854,29409.74386720297,34982.19624910886,POINT (29409.74386720297 34982.19624910886),103.84598592686301,1.3326410456251336
194,TUAS VIEW EXTENSION,0.001263167231731964,5092.894973933033,26137.8735310428,POINT (5092.894973933033 26137.8735310428),103.62749213945993,1.252647996329661
195,TOWNSVILLE,0.0024164082327900044,29686.468020273,38599.4995308956,POINT (29686.468020273 38599.4995308956),103.84847265239118,1.3653546350575243
196,LEONIE HILL,0.0005714444694691691,28082.939717445217,31145.107959763754,POINT (28082.93971744522 31145.10795976375),103.83406382932762,1.2979398065330776
197,YIO CHU KANG,0.004606659711602919,29443.744719843155,40836.02070850652,POINT (29443.74471984315 40836.02070850652),103.84629172596026,1.3855809452089272
198,LIM CHU KANG,0.0002664131929350991,15309.816882586416,45819.041422596594,POINT (15309.81688258642 45819.04142259659),103.71928549106586,1.430642773851516
199,TANJONG PAGAR,0.0010777719869673368,29397.83104729858,28706.35153202776,POINT (29397.83104729858 28706.35153202776),103.84587860237687,1.2758845188207422
200,BENCOOLEN,0.0012346850241341555,29999.06269428174,31594.59407815698,POINT (29999.06269428174 31594.59407815698),103.85128107125259,1.3020047366012868
201,MANDAI EAST,0.0006845598755776844,25739.273650440497,45391.764856298076,POINT (25739.2736504405 45391.76485629808),103.81300387233131,1.4267814008512498
202,PASIR RIS WAFER FAB PARK,0.0007720054907795821,38612.49655038875,41196.68192614483,POINT (38612.49655038875 41196.68192614483),103.92868003992997,1.3888407364052624
203,LEEDON PARK,0.0013327854347666987,23947.764053419327,33247.68115361364,POINT (23947.76405341933 33247.68115361364),103.79690717310045,1.3169544695803783
204,DOVER,0.0025704585366221225,22015.532460451195,31800.52474169349,POINT (22015.5324604512 31800.52474169349),103.77954537056073,1.3038665870628148
205,VICTORIA,0.003956805884513009,30189.210191927043,31335.725290639188,POINT (30189.21019192704 31335.72529063919),103.85298961525108,1.2996636057334487
206,JURONG GATEWAY,0.011654219450636228,17912.97782668322,35033.90614907108,POINT (17912.97782668322 35033.90614907108),103.7426809867246,1.333107045118694
207,ROCHOR CANAL,0.0007158876094939186,30693.783091215668,31819.1316688655,POINT (30693.78309121567 31819.1316688655),103.85752347060688,1.3040353228136674
208,TIONG BAHRU,0.0022375136433587226,27785.672063140315,29590.39517940958,POINT (27785.67206314032 29590.39517940958),103.83139275846598,1.2838795297164427
209,YISHUN SOUTH,0.004361237384444247,28500.546740808917,44471.67350122547,POINT (28500.54674080892 44471.67350122547),103.83781643545116,1.4184605129867782
210,TAGORE,0.001520033206784137,27445.77130277442,40971.4244892897,POINT (27445.77130277442 40971.4244892897),103.82833840863132,1.3868055188357011
211,SHANGRI-LA,0.002847672605329771,28564.715659470345,38888.92099144104,POINT (28564.71565947034 38888.92099144104),103.83839294245503,1.3679721020539908
212,DEPOT ROAD,0.0012851940959446163,25244.207197926473,29407.094094339376,POINT (25244.20719792647 29407.09409433938),103.8085567133048,1.2822216990848818
213,SINGAPORE POLYTECHNIC,0.0019781989195525648,21751.75103053642,32627.894796950524,POINT (21751.75103053642 32627.89479695052),103.77717500687973,1.3113489744768907
214,CECIL,0.0022509419809407004,29730.19835383722,29011.328474455593,POINT (29730.19835383722 29011.32847445559),103.84886506063324,1.2786426069380006
215,HILLVIEW,0.002891243837893282,20276.65294572213,37526.45823810663,POINT (20276.65294572213 37526.45823810663),103.7639192942138,1.3556494788298723
216,PASIR RIS PARK,0.0015092658654753555,41529.79806672749,40218.94376962386,POINT (41529.79806672749 40218.94376962386),103.95489375690592,1.3799972324035847
217,COMPASSVALE,0.002454563080104733,34304.25050124408,40761.09087015794,POINT (34304.25050124408 40761.09087015794),103.88996705194012,1.3849026614273974
218,SEMBAWANG CENTRAL,0.006857422870475558,26268.732618552003,47558.080473729846,POINT (26268.732618552 47558.08047372985),103.81776141548951,1.4463728110453256
219,MACPHERSON,0.004840827159126355,33774.348363963334,34399.161402549566,POINT (33774.34836396333 34399.16140254957),103.88520425576283,1.327367770233359
220,BAYSHORE,0.000601307413013074,40835.377095144766,32903.59658035949,POINT (40835.37709514477 32903.59658035949),103.94865077303858,1.3138402799706363
221,GEYLANG EAST,0.010869496654722326,35237.16811852536,33246.058731668905,POINT (35237.16811852536 33246.05873166891),103.8983482145417,1.3169392115602017
222,ONE TREE HILL,0.0009069363524875095,27315.55925270865,31563.79681046792,POINT (27315.55925270865 31563.79681046792),103.82716856684064,1.301726273660129
223,ALEXANDRA NORTH,0.00044072260144177903,26548.25074103508,30519.39221732218,POINT (26548.25074103508 30519.39221732218),103.82027399830262,1.292281019697117
224,SINGAPORE GENERAL HOSPITAL,0.0026119308868770793,28147.221049078154,29131.036838792472,POINT (28147.22104907815 29131.03683879247),103.8346414162666,1.2797252543739348
225,KAMPONG JAVA,0.002330634157361906,29891.531182876795,32888.52977944376,POINT (29891.5311828768 32888.52977944376),103.85031493015313,1.3137066411388951
226,CITY HALL,0.004740451219614222,30209.07365592651,30536.50791873865,POINT (30209.07365592651 30536.50791873865),103.85316804115185,1.2924357639295956
227,JOO SENG,0.002287497189666003,33454.069079516026,35419.7276905794,POINT (33454.06907951603 35419.7276905794),103.88232655431182,1.3365974658173767
228,GALI BATU,0.001988595666690299,20165.06878864912,42429.24085096013,POINT (20165.06878864912 42429.24085096013),103.76291533675507,1.3999884280182218
229,WOODLEIGH,0.0011170526432443969,31670.478564850764,35799.901960306786,POINT (31670.47856485076 35799.90196030679),103.86630000676374,1.3400358955737701
230,FRANKEL,0.00848513656495841,37694.55192905495,33007.26798547237,POINT (37694.55192905495 33007.26798547237),103.92042896772085,1.3147789968876915
231,GOMBAK,0.001861409446410734,19560.70284389371,39034.54400004348,POINT (19560.70284389371 39034.54400004348),103.75748559508082,1.3692878625075915
232,NORTHSHORE,0.00029153270620042653,36169.55749017907,44222.76556797275,POINT (36169.55749017907 44222.76556797275),103.90672921601869,1.4162083144895556
233,CHANGI POINT,0.0011014735799813825,44603.63267942883,41360.41864590394,POINT (44603.63267942883 41360.41864590394),103.98251500826525,1.3903187052181045
234,KOVAN,0.0033487035255318483,33270.79137153873,38331.47681437974,POINT (33270.79137153873 38331.47681437974),103.8806802074347,1.362930312869231
235,KALLANG WAY,0.0018909807039979984,32761.49234495055,34229.719203364155,POINT (32761.49234495055 34229.71920336415),103.87610316630828,1.325835570625526
236,CRAWFORD,0.002886964085290057,31396.89067716185,31457.2870258351,POINT (31396.89067716185 31457.2870258351),103.86384117872883,1.300762858677015
237,LOWER SELETAR,0.0013722763810083954,29437.619516896957,43432.045461635345,POINT (29437.61951689696 43432.04546163535),103.84623681445044,1.4090584602028222
238,KIM KEAT,0.0007808433339165355,30817.606128782354,34898.8968112739,POINT (30817.60612878235 34898.8968112739),103.85863635909398,1.3318876170184466
239,BALESTIER,0.007737312119047589,29975.263909284433,34194.067698471794,POINT (29975.26390928443 34194.06769847179),103.85106739405317,1.3255134588815558
240,GREENWOOD PARK,0.0006307894637799543,22608.389495912907,47660.06453416761,POINT (22608.38949591291 47660.06453416761),103.78486957021174,1.4472946505994304
241,LORONG HALUS,0.0002113988430009026,35870.25681364535,39071.43841045952,POINT (35870.25681364535 39071.43841045952),103.90403834983519,1.3696216803068735
242,JURONG WEST CENTRAL,0.023854997583192667,13396.626176247824,35811.72616693807,POINT (13396.62617624782 35811.72616693807),103.70209870290407,1.3401395149590491
243,PASIR PANJANG 2,0.0021561561118068153,23692.638502193782,28894.40998435721,POINT (23692.63850219378 28894.40998435721),103.79461533872524,1.2775849907937438
244,YISHUN CENTRAL,0.01177083436841918,28483.07051082384,45383.33440165244,POINT (28483.07051082384 45383.33440165244),103.8376594113623,1.4267052451542843
245,TANGLIN,0.0003758506860433282,27162.875763197928,31905.732495289336,POINT (27162.87576319793 31905.73249528934),103.82579662684446,1.304818615783618
246,UPPER PAYA LEBAR,0.0026682908887360915,32866.52290724146,36522.074162381025,POINT (32866.52290724146 36522.07416238102),103.87704728907154,1.3465667933163117
247,PASIR PANJANG 1,0.0035963252500857057,22077.338362873998,29893.781282844575,POINT (22077.338362874 29893.78128284457),103.78010108483045,1.2866226890632877
248,TUAS NORTH,0.0016327359793531818,7737.032919245572,34331.08519958847,POINT (7737.032919245572 34331.08519958847),103.6512450714542,1.3267459178000511
249,BANGKIT,0.0034093108535661275,21431.22861934829,39899.52728147133,POINT (21431.22861934829 39899.52728147133),103.77429337782873,1.3771109338287393
250,UPPER THOMSON,0.006894991791159489,27884.687241238502,37749.39371257658,POINT (27884.6872412385 37749.39371257658),103.832282417809,1.3576666288351629
251,KAMPONG BUGIS,0.0012704058939451855,32138.221685296594,32275.69078691974,POINT (32138.22168529659 32275.69078691974),103.87050248096516,1.3081641225219374
252,WOODLANDS WEST,0.009955837116133293,21582.590335894012,46573.02497833191,POINT (21582.59033589401 46573.02497833191),103.77565199011856,1.4374636471756284
253,PAYA LEBAR EAST,0.0003419271699930006,38065.44838934096,37522.396098194346,POINT (38065.44838934096 37522.39609819435),103.92376314688391,1.355612044310183
254,BUGIS,0.004246292597489533,30528.33477001714,31278.46446003717,POINT (30528.33477001714 31278.46446003717),103.85603679700078,1.2991457332598813
255,MONK'S HILL,0.0002600636148480331,28922.845698711764,32259.785626700876,POINT (28922.84569871176 32259.78562670088),103.84161078940323,1.3080205451468785
256,CHIN BEE,0.0012387652225345294,14631.805947475345,35240.970393008574,POINT (14631.80594747534 35240.97039300857),103.71319775123558,1.3349783867063219
257,PASIR RIS CENTRAL,0.008130804778415341,40755.901758111024,39341.747748913214,POINT (40755.90175811102 39341.74774891321),103.94793936087652,1.3720645486341794
258,TUAS BAY,0.003528431689225992,6921.158828136268,33401.41891688053,POINT (6921.158828136268 33401.41891688053),103.64391467376035,1.3183378370614174
259,TOA PAYOH WEST,0.0023409290102728024,28943.192300328454,35787.347878518216,POINT (28943.19230032845 35787.34787851822),103.84179372149782,1.339922569440536
260,INSTITUTION HILL,0.0006528989601397437,28465.399957863778,30711.217954895546,POINT (28465.39995786378 30711.21795489555),103.83750039754682,1.2940158545829423
261,TRAFALGAR,0.0056474833502336355,33351.52187078779,40336.79753307865,POINT (33351.52187078779 40336.79753307865),103.88140598744393,1.3810656960759424
262,BOON KENG,0.0031683851493640703,32338.32129860495,33018.76071739752,POINT (32338.32129860495 33018.76071739752),103.87230057539169,1.3148841558008133
263,MATILDA,0.007689812734479913,35089.98531786013,42728.27454293228,POINT (35089.98531786013 42728.27454293228),103.89702795055129,1.4026929730186435
264,KALLANG BAHRU,0.003797290823329944,31579.288967951517,32929.527661813365,POINT (31579.28896795152 32929.52766181336),103.86548027907301,1.3140772614289102
265,FLORA DRIVE,0.0015258611990639948,42801.73496799839,37930.548969888514,POINT (42801.73496799839 37930.54896988851),103.96632188404249,1.3593012477992574
266,NORTH COAST,0.007559740456386527,22147.036052782285,48031.552238968776,POINT (22147.03605278228 48031.55223896878),103.7807237721235,1.4506541560657977
267,BENOI SECTOR,0.0005461492119069317,11668.24417816792,33336.526735265215,POINT (11668.24417816792 33336.52673526522),103.68656953095797,1.3177538747696558
268,SERANGOON NORTH IND ESTATE,0.0011866747684075322,31498.878438214095,39642.22236330456,POINT (31498.87843821409 39642.22236330456),103.86475852655065,1.374784487819352
269,YISHUN WEST,0.00982314030596424,27743.266827040607,45873.60068204424,POINT (27743.26682704061 45873.60068204424),103.83101159027485,1.431139038974388
270,SERANGOON GARDEN,0.004548903596635712,31710.82276196473,38310.22439962042,POINT (31710.82276196473 38310.22439962042),103.86666283272824,1.3627383498867385
271,GUILIN,0.0029075706585230004,19151.827673499884,37505.979312040174,POINT (19151.82767349988 37505.97931204017),103.753812021448,1.355463962100117
272,KAMPONG TIONG BAHRU,0.0025297802481937287,27335.83050425691,28979.77318571346,POINT (27335.83050425691 28979.77318571346),103.82735076786493,1.2783572722323175
273,POTONG PASIR,0.0024704930060061585,31596.799068953707,35028.10434418698,POINT (31596.79906895371 35028.10434418698),103.86563786164314,1.3330560416343114
274,GUL CIRCLE,0.0007633245399231019,9693.971254322994,33074.42905722238,POINT (9693.971254322994 33074.42905722238),103.66882989661431,1.3153824504374656
275,BRAS BASAH,0.0027660062070191094,29793.09317307879,30958.095292083843,POINT (29793.09317307879 30958.09529208384),103.84943030458255,1.2962484783733996
276,RAFFLES PLACE,0.0014670380887594717,29968.61758762941,29572.761894470364,POINT (29968.61758762941 29572.76189447036),103.85100738162024,1.2837199997482212
277,MANDAI ESTATE,0.00032663724629767427,27082.698061466974,45367.46032282963,POINT (27082.69806146697 45367.46032282963),103.82507577725396,1.426561674907468
278,PASIR RIS DRIVE,0.006330522448483351,42032.45809407272,38988.218790667364,POINT (42032.45809407272 38988.21879066736),103.95940993573073,1.368866786188589
279,TUAS PROMENADE,0.0021678763848983753,5918.995686900978,34910.582131282375,POINT (5918.995686900978 34910.58213128238),103.63490868726535,1.3319853870881053
280,TEBAN GARDENS,0.004412082722390311,17965.72251708824,33016.340300421136,POINT (17965.72251708824 33016.34030042114),103.74315558644987,1.3148609334873949
281,RESERVOIR VIEW,0.0005578146324875607,18367.17108352703,45940.48680996425,POINT (18367.17108352703 45940.48680996425),103.7467585939479,1.4317422893151464
282,SELETAR AEROSPACE PARK,0.0005150415979458355,31690.730084589606,43796.911753620654,POINT (31690.73008458961 43796.91175362065),103.86648297716143,1.4123579775710653
283,SENOKO NORTH,0.0016553558235914586,24665.787870855285,49482.59533559931,POINT (24665.78787085529 49482.59533559931),103.80335713066032,1.4637772755024654
284,FERNVALE,0.003297796902383278,32806.2915430158,41896.36855840677,POINT (32806.2915430158 41896.36855840677),103.8765069437716,1.3951699878872155
285,ORANGE GROVE,0.00034687154944631565,27668.184153409067,32484.764067121563,POINT (27668.18415340907 32484.76406712156),103.83033705258262,1.3100551827635785
286,HOLLAND DRIVE,0.002196408312450309,23711.43705618622,32294.772192995923,POINT (23711.43705618622 32294.77219299592),103.79478378682283,1.3083366670332681
287,TELOK BLANGAH RISE,0.002656090541996634,27029.96389336873,28501.66496992359,POINT (27029.96389336873 28501.66496992359),103.82460245649406,1.2740334211255069
288,SEMBAWANG NORTH,0.0029995509183535518,26038.808411073034,48732.90574633072,POINT (26038.80841107303 48732.90574633072),103.81569523506765,1.4569974880271774
289,JELEBU,0.009244292846756777,20535.39019218585,39769.44451157919,POINT (20535.39019218585 39769.44451157919),103.76624365266011,1.3759342982822214
290,LOYANG WEST,0.0015261069510557883,43294.83373874102,39888.771684897576,POINT (43294.83373874102 39888.77168489758),103.97075369942326,1.37701041403606
291,HOUGANG CENTRAL,0.007075540278590657,34470.70052860689,39076.596308503744,POINT (34470.70052860689 39076.59630850374),103.89146236208765,1.3696686666033544
292,SENOKO WEST,0.001393845652275847,23921.55122309113,48088.74100858055,POINT (23921.55122309113 48088.74100858055),103.7966695763219,1.4511716669156385
293,MIDVIEW,0.0033775756984809136,23349.760084593392,46841.11437664976,POINT (23349.76008459339 46841.11437664976),103.791531659763,1.439888497922546
294,SERANGOON CENTRAL,0.009859465483768768,32157.374641826187,37148.6070374074,POINT (32157.37464182619 37148.6070374074),103.87067524187766,1.352233039241655
295,ANG MO KIO TOWN CENTRE,0.007917532333791456,29501.76592510483,39419.40493064281,POINT (29501.76592510483 39419.40493064281),103.84681301864396,1.3727695764631618
296,TAMPINES EAST,0.026870970662297763,41122.54701422137,37392.38908246012,POINT (41122.54701422137 37392.38908246012),103.95123306518664,1.354435120536957
297,SUNSET WAY,0.0007466761254740022,20805.313109209095,34279.45219477298,POINT (20805.3131092091 34279.45219477298),103.76867041729098,1.326284859923275
298,HILLCREST,0.0009322288538546396,25207.842613947454,35039.29424787081,POINT (25207.84261394745 35039.29424787081),103.80822945741846,1.3331573236134413
299,WOODLANDS EAST,0.01228718339674768,24506.63755813031,46991.63002696307,POINT (24506.63755813031 46991.63002696307),103.80192730672906,1.441249874633174
300,SAFTI,0.0002598859952635705,11290.267413112275,35199.67048840529,POINT (11290.26741311227 35199.67048840529),103.68317221171449,1.3346032256068228
301,PANG SUA,0.00039568656226144,18535.567789075973,43826.08364654694,POINT (18535.56778907597 43826.08364654694),103.74827249491976,1.4126204689735344
302,HOLLAND ROAD,0.0030523891711767325,22485.019340270064,34364.28965541641,POINT (22485.01934027006 34364.28965541641),103.7837634686656,1.3270524501053604
